[
    {
        "id": 1,
        "name": "Chai Pani",
        "city": "asheville",
        "street": "22 Battery Park",
        "zip": 28801,
        "phone": 8282544003,
        "longitude": -82.555378,
        "latitude": 35.595136,
        "coordinates": [-82.555378, 35.595136]
    },
    {
        "id": 2,
        "name": "Buxton Hall",
        "city": "asheville",
        "street": "32 Banks Ave",
        "zip": 28801,
        "phone": 8282327216,
        "longitude": -82.5533,
        "latitude": 35.5892,
        "coordinates": [-82.5533, 35.5892]
    },
    {
        "id": 3,
        "name": "Benne on Eagle",
        "city": "asheville",
        "street": "35 Eagle St.",
        "zip": 28801,
        "phone": 8285528833,
        "longitude": -82.549858,
        "latitude": 35.594103,
        "coordinates": [-82.549858, 35.594103]
    },
    {
        "id": 4,
        "name": "Taco Temple",
        "city": "asheville",
        "street": "132 Charlotte St.",
        "zip": 28801,
        "phone": 8282558098,
        "longitude": -82.546648,
        "latitude": 35.603929,
        "coordinates": [-82.546648, 35.603929]
    },
    {
        "id": 5,
        "name": "Taco Billy",
        "city": "asheville",
        "street": "201 Haywood Rd",
        "zip": 28806,
        "phone": 8285050088,
        "longitude": -82.574329,
        "latitude": 35.579896,
        "coordinates": [-82.574329, 35.579896]
    },
    {
        "id": 6,
        "name": "Standard Pizza Co.",
        "city": "asheville",
        "street": "631 Haywood Rd",
        "zip": 28806,
        "phone": 8282558122,
        "longitude": -82.589312,
        "latitude": 35.578646,
        "coordinates": [-82.589312, 35.578646]
    },
    {
        "id": 7,
        "name": "Bim Beri Bon",
        "city": "asheville",
        "street": "697 Haywood Rd.",
        "zip": 28806,
        "phone": 8285050328,
        "longitude": -82.591365,
        "latitude": 35.577492,
        "coordinates": [-82.591365, 35.577492]
    }
]